$GPRMC,024546.000,A,1158.4113,N,07521.2383,E,0.30,60.30,070521,,,A*59
$GPVTG,60.30,T,,M,0.30,N,0.55,K,A*0B
$GPGGA,024547.000,1158.4114,N,07521.2384,E,1,8,0.87,21.6,M,-89.9,M,,*4A
$GPGLL,1158.4114,N,07521.2384,E,024547.000,A,A*58
$GPGSA,A,3,17,09,30,01,21,28,07,08,,,,,1.24,0.87,0.88*01
$GPGSV,4,1,13,09,76,179,16,07,42,009,25,04,41,149,,08,36,042,18*7E
$GPGSV,4,2,13,14,35,279,,28,29,267,18,17,27,203,17,30,23,327,15*7D
$GPGSV,4,3,13,21,20,105,24,01,20,133,17,03,05,164,,27,03,036,25*7A
$GPGSV,4,4,13,193,,,*40
$GPRMC,024547.000,A,1158.4114,N,07521.2384,E,0.22,53.74,070521,,,A*5B
$GPVTG,53.74,T,,M,0.22,N,0.41,K,A*0D
$GPGGA,024548.000,1158.4114,N,07521.2384,E,1,8,0.87,21.6,M,-89.9,M,,*45
$GPGLL,1158.4114,N,07521.2384,E,024548.000,A,A*57
$GPGSA,A,3,17,09,30,01,21,28,07,08,,,,,1.24,0.87,0.88*01
$GPGSV,4,1,13,09,76,179,16,07,42,009,25,04,41,149,,08,36,042,18*7E
$GPGSV,4,2,13,14,35,279,,28,29,267,18,17,27,203,17,30,23,328,15*72
$GPGSV,4,3,13,21,20,105,25,01,20,133,17,03,05,164,,27,03,036,25*7B
$GPGSV,4,4,13,193,,,*40
$GPRMC,024548.000,A,1158.4114,N,07521.2384,E,0.15,67.77,070521,,,A*54
$GPVTG,67.77,T,,M,0.15,N,0.28,K,A*02
$GPGGA,024549.000,1158.4114,N,07521.2384,E,1,9,0.84,21.6,M,-89.9,M,,*46
$GPGLL,1158.4114,N,07521.2384,E,024549.000,A,A*56
$GPGSA,A,3,17,09,30,01,21,28,04,07,08,,,,1.21,0.84,0.87*0C
$GPGSV,4,1,13,09,76,179,17,07,42,009,25,04,41,149,17,08,36,042,19*78
$GPGSV,4,2,13,14,35,279,,28,29,267,18,17,27,203,17,30,23,328,15*72
$GPGSV,4,3,13,21,20,105,25,01,20,133,17,03,05,164,,27,03,036,25*7B
$GPGSV,4,4,13,193,,,*40
$GPRMC,024549.000,A,1158.4114,N,07521.2384,E,0.16,58.96,070521,,,A*55
$GPVTG,58.96,T,,M,0.16,N,0.30,K,A*0B
$GPGGA,024550.000,1158.4114,N,07521.2385,E,1,9,0.84,21.6,M,-89.9,M,,*4F
$GPGLL,1158.4114,N,07521.2385,E,024550.000,A,A*5F
$GPGSA,A,3,17,09,30,01,21,28,04,07,08,,,,1.21,0.84,0.87*0C
$GPGSV,4,1,13,09,76,179,17,07,42,009,24,04,41,149,16,08,36,042,19*78
$GPGSV,4,2,13,14,35,279,,28,29,267,18,17,27,203,17,30,23,328,14*73
$GPGSV,4,3,13,21,20,105,25,01,20,133,17,03,05,164,,27,03,036,24*7A
$GPGSV,4,4,13,193,,,*40
$GPRMC,024550.000,A,1158.4114,N,07521.2385,E,0.26,60.29,070521,,,A*50
$GPVTG,60.29,T,,M,0.26,N,0.49,K,A*09
$GPGGA,024551.000,1158.4115,N,07521.2386,E,1,9,0.84,21.6,M,-89.9,M,,*4C
$GPGLL,1158.4115,N,07521.2386,E,024551.000,A,A*5C
$GPGSA,A,3,17,09,30,01,21,28,04,07,08,,,,1.21,0.84,0.87*0C
$GPGSV,4,1,13,09,76,179,16,07,42,009,24,04,41,149,16,08,36,042,19*79
$GPGSV,4,2,13,14,35,279,,28,29,267,17,17,27,203,17,30,23,328,14*7C
$GPGSV,4,3,13,21,20,105,25,01,20,133,16,03,05,164,,27,03,036,24*7B
$GPGSV,4,4,13,193,,,*40
$GPRMC,024551.000,A,1158.4115,N,07521.2386,E,0.30,59.86,070521,,,A*5B
$GPVTG,59.86,T,,M,0.30,N,0.55,K,A*0C
$GPGGA,024552.000,1158.4115,N,07521.2386,E,1,9,0.84,21.6,M,-89.9,M,,*4F
$GPGLL,1158.4115,N,07521.2386,E,024552.000,A,A*5F
$GPGSA,A,3,17,09,30,01,21,28,04,07,08,,,,1.21,0.84,0.87*0C
$GPGSV,4,1,13,09,76,179,16,07,42,009,24,04,41,149,15,08,36,042,19*7A
$GPGSV,4,2,13,14,35,279,,28,29,267,17,17,27,203,17,30,23,328,13*7B
$GPGSV,4,3,13,21,20,105,24,01,20,133,16,03,05,164,,27,03,036,23*7D
$GPGSV,4,4,13,193,,,*40
$GPRMC,024552.000,A,1158.4115,N,07521.2386,E,0.26,69.82,070521,,,A*58
$GPVTG,69.82,T,,M,0.26,N,0.49,K,A*01
$GPGGA,024553.000,1158.4116,N,07521.2387,E,1,9,0.84,21.6,M,-89.9,M,,*4C
$GPGLL,1158.4116,N,07521.2387,E,024553.000,A,A*5C
$GPGSA,A,3,17,09,30,01,21,28,04,07,08,,,,1.21,0.84,0.87*0C
$GPGSV,4,1,13,09,76,179,16,07,42,009,23,04,41,149,15,08,36,042,19*7D
$GPGSV,4,2,13,14,35,279,,28,29,267,17,17,27,203,16,30,23,328,14*7D
$GPGSV,4,3,13,21,20,105,23,01,20,133,16,03,05,164,,27,03,036,22*7B
$GPGSV,4,4,13,193,,,*40
$GPRMC,024553.000,A,1158.4116,N,07521.2387,E,0.30,80.05,070521,,,A*54
$GPVTG,80.05,T,,M,0.30,N,0.55,K,A*03
$GPGGA,024554.000,1158.4116,N,07521.2388,E,1,9,0.84,21.6,M,-89.9,M,,*44
$GPGLL,1158.4116,N,07521.2388,E,024554.000,A,A*54
$GPGSA,A,3,17,09,30,01,21,28,04,07,08,,,,1.21,0.84,0.87*0C
$GPGSV,4,1,13,09,76,179,16,07,42,009,23,04,41,149,15,08,36,042,19*7D
$GPGSV,4,2,13,14,35,279,,28,29,267,17,17,27,203,15,30,23,328,14*7E
$GPGSV,4,3,13,21,20,105,24,01,20,132,16,03,05,164,,27,03,036,21*7E
$GPGSV,4,4,13,193,,,*40
$GPRMC,024554.000,A,1158.4116,N,07521.2388,E,0.32,82.17,070521,,,A*5F
$GPVTG,82.17,T,,M,0.32,N,0.59,K,A*0C
$GPGGA,024555.000,1158.4116,N,07521.2389,E,1,9,0.84,21.6,M,-89.9,M,,*44
$GPGLL,1158.4116,N,07521.2389,E,024555.000,A,A*54
$GPGSA,A,3,17,09,30,01,21,28,04,07,08,,,,1.21,0.84,0.87*0C
$GPGSV,4,1,13,09,76,179,16,07,42,009,24,04,41,149,15,08,36,042,19*7A
$GPGSV,4,2,13,14,35,279,,28,29,267,16,17,27,203,16,30,23,328,14*7C
$GPGSV,4,3,13,21,20,105,24,01,20,132,17,03,05,164,,27,03,036,21*7F
$GPGSV,4,4,13,193,,,*40
$GPRMC,024555.000,A,1158.4116,N,07521.2389,E,0.34,93.49,070521,,,A*52
$GPVTG,93.49,T,,M,0.34,N,0.63,K,A*08
$GPGGA,024556.000,1158.4116,N,07521.2390,E,1,9,0.84,21.6,M,-89.9,M,,*4F
$GPGLL,1158.4116,N,07521.2390,E,024556.000,A,A*5F
$GPGSA,A,3,17,09,30,01,21,28,04,07,08,,,,1.21,0.84,0.87*0C
$GPGSV,4,1,13,09,76,179,16,07,42,009,24,04,41,149,15,08,36,042,19*7A
$GPGSV,4,2,13,14,35,279,,28,29,267,16,17,27,203,17,30,23,328,12*7B
$GPGSV,4,3,13,21,20,105,24,01,20,132,18,03,05,164,,27,03,036,21*70
$GPGSV,4,4,13,193,,,*40
$GPRMC,024556.000,A,1158.4116,N,07521.2390,E,0.29,96.00,070521,,,A*5D
$GPVTG,96.00,T,,M,0.29,N,0.54,K,A*08
$GPGGA,024557.000,1158.4116,N,07521.2390,E,1,9,0.84,21.6,M,-89.9,M,,*4E
$GPGLL,1158.4116,N,07521.2390,E,024557.000,A,A*5E
$GPGSA,A,3,17,09,30,01,21,28,04,07,08,,,,1.21,0.84,0.87*0C
$GPGSV,4,1,13,09,76,179,16,07,42,009,24,04,41,150,16,08,36,042,19*71
$GPGSV,4,2,13,14,35,279,,28,29,267,16,17,27,203,16,30,23,328,12*7A
$GPGSV,4,3,13,21,20,105,24,01,20,132,18,03,05,164,,27,03,036,21*70
$GPGSV,4,4,13,193,,,*40
$GPRMC,024557.000,A,1158.4116,N,07521.2390,E,0.31,101.12,070521,,,A*69
$GPVTG,101.12,T,,M,0.31,N,0.57,K,A*3E
$GPGGA,024558.000,1158.4115,N,07521.2391,E,1,9,0.84,21.6,M,-89.9,M,,*43
$GPGLL,1158.4115,N,07521.2391,E,024558.000,A,A*53
$GPGSA,A,3,17,09,30,01,21,28,04,07,08,,,,1.21,0.84,0.87*0C
$GPGSV,4,1,13,09,76,179,16,07,42,009,24,04,41,150,16,08,36,042,19*71
$GPGSV,4,2,13,14,35,279,,28,29,267,16,17,27,203,15,30,23,328,11*7A
$GPGSV,4,3,13,21,20,105,24,01,20,132,18,03,05,164,,27,03,036,21*70
$GPGSV,4,4,13,193,,,*40
$GPRMC,024558.000,A,1158.4115,N,07521.2391,E,0.27,97.15,070521,,,A*5A
$GPVTG,97.15,T,,M,0.27,N,0.50,K,A*07
$GPGGA,024559.000,1158.4115,N,07521.2392,E,1,9,0.84,21.6,M,-89.9,M,,*41
$GPGLL,1158.4115,N,07521.2392,E,024559.000,A,A*51
$GPGSA,A,3,17,09,30,01,21,28,04,07,08,,,,1.21,0.84,0.87*0C
$GPGSV,4,1,13,09,76,179,16,07,42,009,24,04,41,150,16,08,36,042,19*71
$GPGSV,4,2,13,14,35,279,,28,29,267,16,17,27,203,17,30,23,328,11*78
$GPGSV,4,3,13,21,20,105,24,01,20,132,18,03,05,164,,27,03,036,21*70
$GPGSV,4,4,13,193,,,*40
$GPRMC,024559.000,A,1158.4115,N,07521.2392,E,0.20,96.78,070521,,,A*55
$GPVTG,96.78,T,,M,0.20,N,0.38,K,A*04
$GPGGA,024600.000,1158.4115,N,07521.2392,E,1,9,0.84,21.6,M,-89.9,M,,*4E
$GPGLL,1158.4115,N,07521.2392,E,024600.000,A,A*5E
$GPGSA,A,3,17,09,30,01,21,28,04,07,08,,,,1.21,0.84,0.87*0C
$GPGSV,4,1,13,09,76,179,16,07,42,009,24,04,41,150,16,08,36,042,19*71
$GPGSV,4,2,13,14,35,279,,28,29,267,16,17,27,203,16,30,23,328,13*7B
$GPGSV,4,3,13,21,20,105,24,01,20,132,18,03,05,164,,27,03,036,20*71
$GPGSV,4,4,13,193,,,*40
$GPRMC,024600.000,A,1158.4115,N,07521.2392,E,0.22,77.13,070521,,,A*5A
$GPVTG,77.13,T,,M,0.22,N,0.41,K,A*0A
$GPGGA,024601.000,1158.4115,N,07521.2393,E,1,9,0.84,21.6,M,-89.9,M,,*4E
$GPGLL,1158.4115,N,07521.2393,E,024601.000,A,A*5E
$GPGSA,A,3,17,09,30,01,21,28,04,07,08,,,,1.21,0.84,0.87*0C
$GPGSV,4,1,13,09,76,179,16,07,42,009,24,04,41,150,16,14,35,279,*7D
$GPGSV,4,2,13,08,35,042,19,28,29,267,16,17,27,203,16,30,23,328,11*76
$GPGSV,4,3,13,21,20,105,24,01,20,132,18,03,05,164,,27,03,036,20*71
$GPGSV,4,4,13,193,,,*40
$GPRMC,024601.000,A,1158.4115,N,07521.2393,E,0.19,71.96,070521,,,A*59
$GPVTG,71.96,T,,M,0.19,N,0.35,K,A*0A
$GPGGA,024602.000,1158.4116,N,07521.2394,E,1,9,0.84,21.6,M,-89.9,M,,*49
$GPGLL,1158.4116,N,07521.2394,E,024602.000,A,A*59
$GPGSA,A,3,17,09,30,01,21,28,04,07,08,,,,1.21,0.84,0.87*0C
$GPGSV,4,1,13,09,76,179,16,07,42,009,24,04,41,150,16,14,35,279,*7D
$GPGSV,4,2,13,08,35,042,20,28,29,267,16,17,27,203,15,30,23,328,12*7C
$GPGSV,4,3,13,21,20,105,24,01,20,132,18,03,05,164,,27,03,036,20*71
$GPGSV,4,4,13,193,,,*40
$GPRMC,024602.000,A,1158.4116,N,07521.2394,E,0.16,45.00,070521,,,A*59
$GPVTG,45.00,T,,M,0.16,N,0.30,K,A*08
3,13,21,21,104,21,01,20,131,16,03,04,163,,27,02,036,19*74
$GPGSV,4,4,13,193,,,*40
$GPRMC,024826.000,A,1158.4089,N,07521.2394,E,0.17,199.05,070521,,,A*62
$GPVTG,199.05,T,,M,0.17,N,0.32,K,A*3E
$GPGGA,024827.000,1158.4088,N,07521.2394,E,1,10,0.79,21.4,M,-89.9,M,,*7E
$GPGLL,1158.4088,N,07521.2394,E,024827.000,A,A*56
$GPGSA,A,3,17,09,14,30,01,21,28,04,07,08,,,1.18,0.79,0.88*0E
$GPGSV,4,1,13,09,75,179,26,07,43,010,29,04,40,150,18,14,36,281,20*70
$GPGSV,4,2,13,08,34,041,27,28,30,268,23,17,28,203,12,30,24,328,15*70
$GPGSV,4,3,13,21,21,104,20,01,20,131,16,03,04,163,,27,02,036,19*75
$GPGSV,4,4,13,193,,,*40
$GPRMC,024827.000,A,1158.4088,N,07521.2394,E,0.16,176.20,070521,,,A*65
$GPVTG,176.20,T,,M,0.16,N,0.29,K,A*33
$GPGGA,024828.000,1158.4088,N,07521.2394,E,1,10,0.79,21.4,M,-89.9,M,,*71
$GPGLL,1158.4088,N,07521.2394,E,024828.000,A,A*59
$GPGSA,A,3,17,09,14,30,01,21,28,04,07,08,,,1.18,0.79,0.88*0E
$GPGSV,4,1,13,09,75,179,26,07,43,010,29,04,40,150,18,14,36,281,20*70
$GPGSV,4,2,13,08,34,041,27,28,30,268,23,17,28,203,13,30,24,328,15*71
$GPGSV,4,3,13,21,21,104,19,01,20,131,17,03,04,163,,27,02,036,19*7E
$GPGSV,4,4,13,193,,,*40
$GPRMC,024828.000,A,1158.4088,N,07521.2394,E,0.10,165.41,070521,,,A*69
$GPVTG,165.41,T,,M,0.10,N,0.19,K,A*33
$GPGGA,024829.000,1158.4087,N,07521.2394,E,1,10,0.79,21.4,M,-89.9,M,,*7F
$GPGLL,1158.4087,N,07521.2394,E,024829.000,A,A*57
$GPGSA,A,3,17,09,14,30,01,21,28,04,07,08,,,1.18,0.79,0.88*0E
$GPGSV,4,1,13,09,75,179,25,07,43,010,28,04,40,150,18,14,36,281,20*72
$GPGSV,4,2,13,08,34,041,27,28,30,268,23,17,28,203,13,30,24,328,15*71
$GPGSV,4,3,13,21,21,104,19,01,20,131,17,03,04,163,,27,02,036,20*74
$GPGSV,4,4,13,193,,,*40
$GPRMC,024829.000,A,1158.4087,N,07521.2394,E,0.07,102.51,070521,,,A*61
$GPVTG,102.51,T,,M,0.07,N,0.14,K,A*38
$GPGGA,024830.000,1158.4087,N,07521.2395,E,1,10,0.79,21.4,M,-89.9,M,,*76
$GPGLL,1158.4087,N,07521.2395,E,024830.000,A,A*5E
$GPGSA,A,3,17,09,14,30,01,21,28,04,07,08,,,1.18,0.79,0.88*0E
$GPGSV,4,1,13,09,75,179,25,07,43,010,28,04,40,150,18,14,36,281,20*72
$GPGSV,4,2,13,08,34,041,27,28,30,268,23,100,29,04,40,150,18,14,36,281,18*7B
$GPGSV,4,2,13,08,34,041,28,28,30,269,22,17,29,203,,30,24,329,17*7E
$GPGSV,4,3,13,21,21,104,21,01,20,131,16,03,04,163,,27,02,036,20*7E
$GPGSV,4,4,13,193,,,*40
$GPRMC,024850.000,A,1158.4091,N,07521.2394,E,0.12,279.39,070521,,,A*6D
$GPVTG,279.39,T,,M,0.12,N,0.23,K,A*39
$GPGGA,024851.000,1158.4091,N,07521.2394,E,1,9,0.89,21.3,M,-89.9,M,,*47
$GPGLL,1158.4091,N,07521.2394,E,024851.000,A,A*5F
$GPGSA,A,3,09,14,30,01,21,28,04,07,08,,,,1.25,0.89,0.88*09
$GPGSV,4,1,13,09,75,179,26,07,43,010,29,04,40,150,18,14,36,281,18*7B
$GPGSV,4,2,13,08,34,041,28,28,30,269,22,17,29,203,,30,24,329,16*7F
$GPGSV,4,3,13,21,21,104,21,01,20,131,15,03,04,163,,27,02,036,20*7D
$GPGSV,4,4,13,193,,,*40
$GPRMC,024851.000,A,1158.4091,N,07521.2394,E,0.09,334.26,070521,,,A*60
$GPVTG,334.26,T,,M,0.09,N,0.17,K,A*32
$GPGGA,024852.000,1158.4091,N,07521.2393,E,1,9,0.89,21.3,M,-89.9,M,,*43
$GPGLL,1158.4091,N,07521.2393,E,024852.000,A,A*5B
$GPGSA,A,3,09,14,30,01,21,28,04,07,08,,,,1.25,0.89,0.88*09
$GPGSV,4,1,13,09,75,179,26,07,43,010,29,04,40,150,18,14,36,281,18*7B
$GPGSV,4,2,13,08,34,041,28,28,30,269,22,17,29,203,,30,24,329,14*7D
$GPGSV,4,3,13,21,21,104,20,01,20,131,16,03,04,163,,27,02,036,20*7F
$GPGSV,4,4,13,193,,,*40
$GPRMC,024852.000,A,1158.4091,N,07521.2393,E,0.08,11.39,070521,,,A*5F
$GPVTG,11.39,T,,M,0.08,N,0.15,K,A*0B
$GPGGA,024853.000,1158.4092,N,07521.2393,E,1,9,0.90,21.3,M,-89.9,M,,*49
$GPGLL,1158.4092,N,07521.2393,E,024853.000,A,A*59
$GPGSA,A,3,09,14,30,01,21,28,04,07,08,,,,2.07,0.90,1.87*0C
$GPGSV,4,1,13,09,75,179,27,07,43,010,29,04,40,150,18,14,36,281,18*7A
$GPGSV,4,2,13,08,34,041,28,28,30,269,22,17,29,203,,30,24,329,13*7A
$GPGSV,4,3,13,21,21,104,20,01,20,131,15,03,04,163,,27,02,036,20*7C
$GPGSV,4,4,13,193,,,*40
$GPRMC,024853.000,A,1158.4092,N,07521.2393,E,0.11,4.81,070521,,,A*62
$GPVTG,4.81,T,,M,0.11,N,0.20,K,A*32
$GPGGA,024854.000,1158.4092,N,07521.2394,E,1,9,0.90,21.3,M,-89.9,M,,*49
$GPGLL,1158.4092,N,07521.2394,E,024854.000,A,A*59
$GPGSA,A,3,09,14,30,01,21,28,04,07,08,,,,2.07,0.90,1.87*0C
$GPGSV,4,1,13,09,75,179,27,07,43,010,29,04,40,150,18,14,36,281,17*75
$GPGSV,4,2,13,08,34,041,28,28,30,269,22,17,29,203,,30,24,329,10*79
$GPGSV,4,3,13,21,21,104,20,01,21,131,13,03,04,163,,27,02,036,20*7B
$GPGSV,4,4,13,193,,,*40
$GPRMC,024854.000,A,1158.4092,N,07521.2394,E,0.18,26.36,070521,,,A*57
$GPVTG,26.36,T,,M,0.18,N,0.33,K,A*05
$GPGGA,024855.000,1158.4092,N,07521.2394,E,1,9,0.89,21.3,M,-89.9,M,,*40
$GPGLL,1158.4092,N,07521.2394,E,024855.000,A,A*58
$GPGSA,A,3,09,14,30,01,21,28,04,07,08,,,,1.25,0.89,0.88*09
$GPGSV,4,1,13,09,75,179,26,07,43,010,27,04,40,150,18,14,36,281,17*7A
$GPGSV,4,2,13,08,34,041,27,28,30,269,21,17,29,203,,30,24,329,11*74
$GPGSV,4,3,13,21,21,104,20,01,21,131,11,03,04,163,,27,02,036,20*79
$GPGSV,4,4,13,193,,,*40
$GPRMC,024855.000,A,1158.4092,N,07521.2394,E,0.16,17.56,070521,,,A*5C
$GPVTG,17.56,T,,M,0.16,N,0.30,K,A*0C
$GPGGA,024856.000,1158.4093,N,07521.2394,E,1,9,0.89,21.3,M,-89.9,M,,*42
$GPGLL,1158.4093,N,07521.2394,E,024856.000,A,A*5A
$GPGSA,A,3,09,14,30,01,21,28,04,07,08,,,,1.25,0.89,0.88*09
$GPGSV,4,1,13,09,75,179,26,07,43,010,28,04,40,150,18,14,36,281,17*75
$GPGSV,4,2,13,08,34,041,17,28,30,269,20,17,29,203,,30,24,329,16*71
$GPGSV,4,3,13,21,21,104,20,01,21,131,11,03,04,163,,27,02,036,20*79
$GPGSV,4,4,13,193,,,*40
$GPRMC,024856.000,A,1158.4093,N,07521.2394,E,0.19,36.71,070521,,,A*57
$GPVTG,36.71,T,,M,0.19,N,0.36,K,A*03
$GPGGA,024857.000,1158.4093,N,07521.2394,E,1,9,0.89,21.3,M,-89.9,M,,*43
$GPGLL,1158.4093,N,07521.2394,E,024857.000,A,A*5B
$GPGSA,A,3,09,14,30,01,21,28,04,07,08,,,,1.25,0.89,0.88*09
$GPGSV,4,1,13,09,75,179,26,07,43,010,29,04,39,150,18,14,36,281,17*7A
$GPGSV,4,2,13,08,34,041,17,28,30,269,19,17,29,203,,30,24,329,17*7A
$GPGSV,4,3,13,21,21,104,19,01,21,131,13,03,04,163,,27,02,036,20*71
$GPGSV,4,4,13,193,,,*40
$GPRMC,024857.000,A,1158.4093,N,07521.2394,E,0.21,71.77,070521,,,A*58
$GPVTG,71.77,T,,M,0.21,N,0.39,K,A*02
$GPGGA,024858.000,1158.4093,N,07521.2395,E,1,9,0.89,21.3,M,-89.9,M,,*4D
$GPGLL,1158.4093,N,07521.2395,E,024858.000,A,A*55
$GPGSA,A,3,09,14,30,01,21,28,04,07,08,,,,1.25,0.89,0.88*09
$GPGSV,4,1,13,09,75,179,27,07,43,010,30,04,39,150,18,14,36,281,17*73
$GPGSV,4,2,13,08,34,041,17,28,30,269,18,17,29,203,,30,24,329,17*7B
$GPGSV,4,3,13,21,21,104,18,01,21,131,14,03,04,163,,27,02,036,20*77
$GPGSV,4,4,13,193,,,*40
$GPRMC,024858.000,A,1158.4093,N,07521.2395,E,0.32,43.62,070521,,,A*51
$GPVTG,43.62,T,,M,0.32,N,0.59,K,A*03

